[
    {
        "mavpackettype": "PING",
        "time_usec": "583697960",
        "seq": "582",
        "target_system": "0",
        "target_component": "0"
    },
    {
        "mavpackettype": "ATTITUDE",
        "time_boot_ms": "583700",
        "roll": "-0.015660187229514122",
        "pitch": "-0.0369645357131958",
        "yaw": "2.489382743835449",
        "rollspeed": "-0.0004464763915166259",
        "pitchspeed": "-0.00030645402148365974",
        "yawspeed": "0.000688557920511812"
    },
    {
        "mavpackettype": "HIGHRES_IMU",
        "time_usec": "583725003",
        "xacc": "-0.3719277083873749",
        "yacc": "0.1577932983636856",
        "zacc": "-9.794602394104004",
        "xgyro": "0.0007791626267135143",
        "ygyro": "0.0005828398279845715",
        "zgyro": "0.0004482579533942044",
        "xmag": "-0.3832443356513977",
        "ymag": "-0.29369571805000305",
        "zmag": "0.2889162003993988",
        "abs_pressure": "102117.0",
        "diff_pressure": "0.0",
        "pressure_alt": "-65.73033905029297",
        "temperature": "30.01999855041504",
        "fields_updated": "7167",
        "id": "0"
    },
    {
        "mavpackettype": "ATTITUDE_QUATERNION",
        "time_boot_ms": "583725",
        "q1": "0.3204168379306793",
        "q2": "0.014996785670518875",
        "q3": "-0.013335158117115498",
        "q4": "0.9470640420913696",
        "rollspeed": "0.000610503600910306",
        "pitchspeed": "0.00039904704317450523",
        "yawspeed": "-5.948968464508653e-05",
        "repr_offset_q": "[0.0, 0.0, 0.0, 0.0]"
    },
    {
        "mavpackettype": "ATTITUDE",
        "time_boot_ms": "583730",
        "roll": "-0.015658585354685783",
        "pitch": "-0.03695936128497124",
        "yaw": "2.489410161972046",
        "rollspeed": "3.7800054997205734e-06",
        "pitchspeed": "-0.00010643572022672743",
        "yawspeed": "0.0007752789533697069"
    },
    {
        "mavpackettype": "ATTITUDE",
        "time_boot_ms": "583779",
        "roll": "-0.015634840354323387",
        "pitch": "-0.036963582038879395",
        "yaw": "2.4894838333129883",
        "rollspeed": "0.001114278333261609",
        "pitchspeed": "-0.0010407106019556522",
        "yawspeed": "0.0006286748102866113"
    },
    {
        "mavpackettype": "HIGHRES_IMU",
        "time_usec": "583824105",
        "xacc": "-0.3666633367538452",
        "yacc": "0.1464788168668747",
        "zacc": "-9.802680969238281",
        "xgyro": "-0.0016248839674517512",
        "ygyro": "0.0012715221382677555",
        "zgyro": "0.0013716132380068302",
        "xmag": "-0.3832443356513977",
        "ymag": "-0.29369571805000305",
        "zmag": "0.2889162003993988",
        "abs_pressure": "102117.0",
        "diff_pressure": "0.0",
        "pressure_alt": "-65.73033905029297",
        "temperature": "30.010000228881836",
        "fields_updated": "6719",
        "id": "0"
    },
    {
        "mavpackettype": "ATTITUDE_QUATERNION",
        "time_boot_ms": "583824",
        "q1": "0.3203496038913727",
        "q2": "0.014999584294855595",
        "q3": "-0.01333195436745882",
        "q4": "0.9470868110656738",
        "rollspeed": "-0.0013833543052896857",
        "pitchspeed": "0.001060145441442728",
        "yawspeed": "0.0012338864617049694",
        "repr_offset_q": "[0.0, 0.0, 0.0, 0.0]"
    },
    {
        "mavpackettype": "ATTITUDE",
        "time_boot_ms": "583829",
        "roll": "-0.015660639852285385",
        "pitch": "-0.03695934638381004",
        "yaw": "2.4895577430725098",
        "rollspeed": "-0.00011721800547093153",
        "pitchspeed": "-0.0001788348745321855",
        "yawspeed": "0.001175940502434969"
    },
    {
        "mavpackettype": "LOCAL_POSITION_NED",
        "time_boot_ms": "583834",
        "x": "2.7020438210456632e-05",
        "y": "0.00025695693329907954",
        "z": "-0.8007753491401672",
        "vx": "0.0008687768131494522",
        "vy": "0.0012226521503180265",
        "vz": "0.0001625625154701993"
    },
    {
        "mavpackettype": "ODOMETRY",
        "time_usec": "583834016",
        "frame_id": "1",
        "child_frame_id": "1",
        "x": "2.7020438210456632e-05",
        "y": "0.00025695693329907954",
        "z": "-0.8007753491401672",
        "q": "[0.320341020822525, 0.014997472986578941, -0.013334418646991253, 0.9470897912979126]",
        "vx": "0.0008687768131494522",
        "vy": "0.0012226521503180265",
        "vz": "0.0001625625154701993",
        "rollspeed": "-6.008883701724699e-06",
        "pitchspeed": "-0.0001128707081079483",
        "yawspeed": "0.0008678276208229363",
        "pose_covariance": "[7.007893873378634e-05, nan, nan, nan, nan, nan, 7.007945532677695e-05, nan, nan, nan, nan, 0.07617658376693726, nan, nan, nan, 2.6327677915105596e-05, nan, nan, 2.3716367650195025e-05, nan, 0.0009557211888022721]",
        "velocity_covariance": "[0.0006979924510233104, nan, nan, nan, nan, nan, 0.0006980065372772515, nan, nan, nan, nan, 0.005000712350010872, nan, nan, nan, nan, nan, nan, nan, nan, nan]",
        "reset_counter": "6",
        "estimator_type": "8",
        "quality": "0"
    },
    {
        "mavpackettype": "TIMESYNC",
        "tc1": "0",
        "ts1": "583868540000"
    },
    {
        "mavpackettype": "ALTITUDE",
        "time_usec": "583868561",
        "altitude_monotonic": "-65.73033905029297",
        "altitude_amsl": "-65.73033905029297",
        "altitude_local": "0.8008943796157837",
        "altitude_relative": "0.8008943796157837",
        "altitude_terrain": "nan",
        "bottom_clearance": "nan"
    },
    {
        "mavpackettype": "MOUNT_ORIENTATION",
        "time_boot_ms": "583850",
        "roll": "0.0",
        "pitch": "-0.0",
        "yaw": "0.0",
        "yaw_absolute": "142.64430236816406"
    },
    {
        "mavpackettype": "ATTITUDE_TARGET",
        "time_boot_ms": "583864",
        "type_mask": "0",
        "q": "[0.32024672627449036, 0.0, 0.0, 0.9473341703414917]",
        "body_roll_rate": "0.1252468079328537",
        "body_pitch_rate": "0.2957193851470947",
        "body_yaw_rate": "0.001121033914387226",
        "thrust": "0.0010000000474974513"
    },
    {
        "mavpackettype": "POSITION_TARGET_LOCAL_NED",
        "time_boot_ms": "583874",
        "coordinate_frame": "1",
        "type_mask": "63",
        "x": "nan",
        "y": "nan",
        "z": "nan",
        "vx": "nan",
        "vy": "nan",
        "vz": "nan",
        "afx": "0.0",
        "afy": "0.0",
        "afz": "100.0",
        "yaw": "2.4896292686462402",
        "yaw_rate": "0.0"
    },
    {
        "mavpackettype": "VFR_HUD",
        "airspeed": "0.0",
        "groundspeed": "0.0013661119155585766",
        "heading": "142",
        "throttle": "0",
        "alt": "-65.73033905029297",
        "climb": "-0.00022719186381436884"
    },
    {
        "mavpackettype": "ATTITUDE",
        "time_boot_ms": "583883",
        "roll": "-0.015658177435398102",
        "pitch": "-0.03696771711111069",
        "yaw": "2.4896416664123535",
        "rollspeed": "-0.0005951944040134549",
        "pitchspeed": "0.0001890598941827193",
        "yawspeed": "0.0001697432599030435"
    },
    {
        "mavpackettype": "HIGHRES_IMU",
        "time_usec": "583923208",
        "xacc": "-0.360825777053833",
        "yacc": "0.16004149615764618",
        "zacc": "-9.803370475769043",
        "xgyro": "0.0010652998462319374",
        "ygyro": "-0.00017687537183519453",
        "zgyro": "0.00018514454131945968",
        "xmag": "-0.3804699182510376",
        "ymag": "-0.29195094108581543",
        "zmag": "0.27291339635849",
        "abs_pressure": "102118.0",
        "diff_pressure": "0.0",
        "pressure_alt": "-65.81489562988281",
        "temperature": "30.01999855041504",
        "fields_updated": "7167",
        "id": "0"
    },
    {
        "mavpackettype": "ATTITUDE_QUATERNION",
        "time_boot_ms": "583923",
        "q1": "0.3202793598175049",
        "q2": "0.014998383820056915",
        "q3": "-0.013336136937141418",
        "q4": "0.9471105337142944",
        "rollspeed": "0.001194678945466876",
        "pitchspeed": "-0.0002983422018587589",
        "yawspeed": "0.0001688277698121965",
        "repr_offset_q": "[0.0, 0.0, 0.0, 0.0]"
    },
    {
        "mavpackettype": "ATTITUDE",
        "time_boot_ms": "583928",
        "roll": "-0.015663204714655876",
        "pitch": "-0.03696174547076225",
        "yaw": "2.489701271057129",
        "rollspeed": "0.000595730496570468",
        "pitchspeed": "-0.0007979054935276508",
        "yawspeed": "0.00020921550458297133"
    },
    {
        "mavpackettype": "ATTITUDE",
        "time_boot_ms": "583977",
        "roll": "-0.015657268464565277",
        "pitch": "-0.03696629777550697",
        "yaw": "2.4897632598876953",
        "rollspeed": "9.014667011797428e-05",
        "pitchspeed": "4.2048763134516776e-05",
        "yawspeed": "0.00024061783915385604"
    },
    {
        "mavpackettype": "LOCAL_POSITION_NED",
        "time_boot_ms": "583992",
        "x": "0.00010639732499839738",
        "y": "0.00035351369297131896",
        "z": "-0.8014548420906067",
        "vx": "0.0002239014720544219",
        "vy": "0.0015966380015015602",
        "vz": "-8.488347521051764e-05"
    },
    {
        "mavpackettype": "ODOMETRY",
        "time_usec": "583992580",
        "frame_id": "1",
        "child_frame_id": "1",
        "x": "0.00010639732499839738",
        "y": "0.00035351369297131896",
        "z": "-0.8014548420906067",
        "q": "[0.32023778557777405, 0.015004497952759266, -0.013332804664969444, 0.9471245408058167]",
        "vx": "0.0002239014720544219",
        "vy": "0.0015966380015015602",
        "vz": "-8.488347521051764e-05",
        "rollspeed": "-0.00018497288692742586",
        "pitchspeed": "-8.019190863706172e-05",
        "yawspeed": "0.0010205332655459642",
        "pose_covariance": "[0.0001384457282256335, nan, nan, nan, nan, nan, 0.00013844769273418933, nan, nan, nan, nan, 0.07572733610868454, nan, nan, nan, 2.7264823074801825e-05, nan, nan, 2.4652232241351157e-05, nan, 0.0009560704929754138]",
        "velocity_covariance": "[0.0009893254609778523, nan, nan, nan, nan, nan, 0.0009893534006550908, nan, nan, nan, nan, 0.004858482629060745, nan, nan, nan, nan, nan, nan, nan, nan, nan]",
        "reset_counter": "6",
        "estimator_type": "8",
        "quality": "0"
    },
    {
        "mavpackettype": "HIGHRES_IMU",
        "time_usec": "584022311",
        "xacc": "-0.3851276636123657",
        "yacc": "0.15372371673583984",
        "zacc": "-9.794780731201172",
        "xgyro": "-5.44767826795578e-05",
        "ygyro": "-0.0007486310205422342",
        "zgyro": "0.0010568615980446339",
        "xmag": "-0.38132336735725403",
        "ymag": "-0.2897973656654358",
        "zmag": "0.27734795212745667",
        "abs_pressure": "102118.0",
        "diff_pressure": "0.0",
        "pressure_alt": "-65.81489562988281",
        "temperature": "30.01999855041504",
        "fields_updated": "7167",
        "id": "0"
    },
    {
        "mavpackettype": "ATTITUDE_QUATERNION",
        "time_boot_ms": "584022",
        "q1": "0.3202209770679474",
        "q2": "0.015009206719696522",
        "q3": "-0.013332894071936607",
        "q4": "0.9471302032470703",
        "rollspeed": "4.265853203833103e-05",
        "pitchspeed": "-0.0007523545064032078",
        "yawspeed": "0.001249218825250864",
        "repr_offset_q": "[0.0, 0.0, 0.0, 0.0]"
    },
    {
        "mavpackettype": "ATTITUDE",
        "time_boot_ms": "584027",
        "roll": "-0.015652211382985115",
        "pitch": "-0.036975838243961334",
        "yaw": "2.489826202392578",
        "rollspeed": "-0.0002121621510013938",
        "pitchspeed": "0.0007583615370094776",
        "yawspeed": "-0.00015360635006800294"
    },
    {
        "mavpackettype": "ATTITUDE",
        "time_boot_ms": "584077",
        "roll": "-0.0156309362500906",
        "pitch": "-0.03696293383836746",
        "yaw": "2.4898972511291504",
        "rollspeed": "-0.0006286493735387921",
        "pitchspeed": "0.00015499583969358355",
        "yawspeed": "0.0010110796429216862"
    },
    {
        "mavpackettype": "HIGHRES_IMU",
        "time_usec": "584116459",
        "xacc": "-0.35430121421813965",
        "yacc": "0.16141533851623535",
        "zacc": "-9.795918464660645",
        "xgyro": "-0.00020008499268442392",
        "ygyro": "-0.0001832512061810121",
        "zgyro": "0.0007988395518623292",
        "xmag": "-0.38132336735725403",
        "ymag": "-0.2897973656654358",
        "zmag": "0.27734795212745667",
        "abs_pressure": "102118.1640625",
        "diff_pressure": "0.0",
        "pressure_alt": "-65.8254623413086",
        "temperature": "30.01999855041504",
        "fields_updated": "6719",
        "id": "0"
    },
    {
        "mavpackettype": "ATTITUDE_QUATERNION",
        "time_boot_ms": "584116",
        "q1": "0.3201620578765869",
        "q2": "0.014999041333794594",
        "q3": "-0.013329572975635529",
        "q4": "0.9471502304077148",
        "rollspeed": "-0.00034920836333185434",
        "pitchspeed": "-0.0002729264087975025",
        "yawspeed": "-8.318439358845353e-05",
        "repr_offset_q": "[0.0, 0.0, 0.0, 0.0]"
    },
    {
        "mavpackettype": "ATTITUDE",
        "time_boot_ms": "584126",
        "roll": "-0.01565769873559475",
        "pitch": "-0.03696197643876076",
        "yaw": "2.4899492263793945",
        "rollspeed": "5.663069896399975e-05",
        "pitchspeed": "-0.0010251798667013645",
        "yawspeed": "-0.000425285252276808"
    },
    {
        "mavpackettype": "LOCAL_POSITION_NED",
        "time_boot_ms": "584161",
        "x": "0.00018676373292692006",
        "y": "0.00038456812035292387",
        "z": "-0.8020794987678528",
        "vx": "0.0003222444502171129",
        "vy": "0.0013171291211619973",
        "vz": "-0.00010254439257550985"
    },
    {
        "mavpackettype": "ODOMETRY",
        "time_usec": "584161055",
        "frame_id": "1",
        "child_frame_id": "1",
        "x": "0.00018676373292692006",
        "y": "0.00038456812035292387",
        "z": "-0.8020794987678528",
        "q": "[0.32014188170433044, 0.015003330074250698, -0.013327216729521751, 0.9471571445465088]",
        "vx": "0.0003222444502171129",
        "vy": "0.0013171291211619973",
        "vz": "-0.00010254439257550985",
        "rollspeed": "0.00021749043662566692",
        "pitchspeed": "9.424056042917073e-05",
        "yawspeed": "-2.1014875528635457e-05",
        "pose_covariance": "[0.00011678328883135691, nan, nan, nan, nan, nan, 0.00011678475129883736, nan, nan, nan, nan, 0.07544639706611633, nan, nan, nan, 2.7077474442194216e-05, nan, nan, 2.4463839508825913e-05, nan, 0.0009566048975102603]",
        "velocity_covariance": "[0.0009091170504689217, nan, nan, nan, nan, nan, 0.0009091405081562698, nan, nan, nan, nan, 0.004747068975120783, nan, nan, nan, nan, nan, nan, nan, nan, nan]",
        "reset_counter": "6",
        "estimator_type": "8",
        "quality": "0"
    },
    {
        "mavpackettype": "ATTITUDE",
        "time_boot_ms": "584171",
        "roll": "-0.015647416934370995",
        "pitch": "-0.036961860954761505",
        "yaw": "2.4899990558624268",
        "rollspeed": "0.00020161760039627552",
        "pitchspeed": "-0.0003569559194147587",
        "yawspeed": "0.0002485759905539453"
    },
    {
        "mavpackettype": "HIGHRES_IMU",
        "time_usec": "584215562",
        "xacc": "-0.3644457757472992",
        "yacc": "0.15821225941181183",
        "zacc": "-9.806512832641602",
        "xgyro": "-0.0002683690981939435",
        "ygyro": "-2.1696541807614267e-05",
        "zgyro": "0.0003433417878113687",
        "xmag": "-0.37995457649230957",
        "ymag": "-0.29299646615982056",
        "zmag": "0.2774578034877777",
        "abs_pressure": "102118.0",
        "diff_pressure": "0.0",
        "pressure_alt": "-65.81489562988281",
        "temperature": "30.01999855041504",
        "fields_updated": "7167",
        "id": "0"
    },
    {
        "mavpackettype": "ATTITUDE_QUATERNION",
        "time_boot_ms": "584215",
        "q1": "0.3201046884059906",
        "q2": "0.015004375018179417",
        "q3": "-0.0133284330368042",
        "q4": "0.9471696019172668",
        "rollspeed": "5.521136336028576e-05",
        "pitchspeed": "-0.00011780158092733473",
        "yawspeed": "0.0003804056323133409",
        "repr_offset_q": "[0.0, 0.0, 0.0, 0.0]"
    },
    {
        "mavpackettype": "ATTITUDE",
        "time_boot_ms": "584220",
        "roll": "-0.01565493270754814",
        "pitch": "-0.036964818835258484",
        "yaw": "2.4900732040405273",
        "rollspeed": "-0.00023697095457464457",
        "pitchspeed": "-0.00045696692541241646",
        "yawspeed": "-0.0004981277161277831"
    },
    {
        "mavpackettype": "ATTITUDE",
        "time_boot_ms": "584270",
        "roll": "-0.015653086826205254",
        "pitch": "-0.03695771470665932",
        "yaw": "2.4901413917541504",
        "rollspeed": "0.00018339906819164753",
        "pitchspeed": "0.001123014371842146",
        "yawspeed": "0.0010294797830283642"
    },
    {
        "mavpackettype": "HIGHRES_IMU",
        "time_usec": "584309709",
        "xacc": "-0.35448142886161804",
        "yacc": "0.15396347641944885",
        "zacc": "-9.78840446472168",
        "xgyro": "-0.00021334411576390266",
        "ygyro": "-0.0007336665876209736",
        "zgyro": "0.001199487829580903",
        "xmag": "-0.38064712285995483",
        "ymag": "-0.2912757396697998",
        "zmag": "0.2776465117931366",
        "abs_pressure": "102121.0",
        "diff_pressure": "0.0",
        "pressure_alt": "-66.06327056884766",
        "temperature": "30.01999855041504",
        "fields_updated": "7167",
        "id": "0"
    },
    {
        "mavpackettype": "ATTITUDE_QUATERNION",
        "time_boot_ms": "584309",
        "q1": "0.32003822922706604",
        "q2": "0.014998256228864193",
        "q3": "-0.013329260982573032",
        "q4": "0.9471921920776367",
        "rollspeed": "-0.0010204525897279382",
        "pitchspeed": "-0.00011747189273592085",
        "yawspeed": "0.000973604095634073",
        "repr_offset_q": "[0.0, 0.0, 0.0, 0.0]"
    },
    {
        "mavpackettype": "ATTITUDE",
        "time_boot_ms": "584319",
        "roll": "-0.01566498726606369",
        "pitch": "-0.036955319344997406",
        "yaw": "2.490225076675415",
        "rollspeed": "0.0009934732224792242",
        "pitchspeed": "-6.192408909555525e-05",
        "yawspeed": "0.0009044468752108514"
    },
    {
        "mavpackettype": "LOCAL_POSITION_NED",
        "time_boot_ms": "584320",
        "x": "0.00025874655693769455",
        "y": "0.00040801428258419037",
        "z": "-0.8026708364486694",
        "vx": "0.0006637658225372434",
        "vy": "0.0013252419885247946",
        "vz": "-0.0002699214965105057"
    },
    {
        "mavpackettype": "ODOMETRY",
        "time_usec": "584319620",
        "frame_id": "1",
        "child_frame_id": "1",
        "x": "0.00025874655693769455",
        "y": "0.00040801428258419037",
        "z": "-0.8026708364486694",
        "q": "[0.3200293779373169, 0.014999190345406532, -0.013330947607755661, 0.9471950531005859]",
        "vx": "0.0006637658225372434",
        "vy": "0.0013252419885247946",
        "vz": "-0.0002699214965105057",
        "rollspeed": "0.0001145882997661829",
        "pitchspeed": "-0.0005588963977061212",
        "yawspeed": "0.0009853050578385592",
        "pose_covariance": "[9.408884216099977e-05, nan, nan, nan, nan, nan, 9.408984624315053e-05, nan, nan, nan, nan, 0.07503359019756317, nan, nan, nan, 2.682073500182014e-05, nan, nan, 2.4207023670896888e-05, nan, 0.0009569263784214854]",
        "velocity_covariance": "[0.0008122618310153484, nan, nan, nan, nan, nan, 0.0008122815052047372, nan, nan, nan, nan, 0.004608806688338518, nan, nan, nan, nan, nan, nan, nan, nan, nan]",
        "reset_counter": "6",
        "estimator_type": "8",
        "quality": "0"
    },
    {
        "mavpackettype": "EXTENDED_SYS_STATE",
        "vtol_state": "0",
        "landed_state": "1"
    },
    {
        "mavpackettype": "SYS_STATUS",
        "onboard_control_sensors_present": "35651597",
        "onboard_control_sensors_enabled": "35717133",
        "onboard_control_sensors_health": "539000895",
        "load": "324",
        "voltage_battery": "7310",
        "current_battery": "2",
        "battery_remaining": "0",
        "drop_rate_comm": "0",
        "errors_comm": "0",
        "errors_count1": "0",
        "errors_count2": "0",
        "errors_count3": "0",
        "errors_count4": "0"
    },
    {
        "mavpackettype": "TIMESYNC",
        "tc1": "0",
        "ts1": "584355510000"
    },
    {
        "mavpackettype": "ALTITUDE",
        "time_usec": "584357078",
        "altitude_monotonic": "-65.89945220947266",
        "altitude_amsl": "-65.89945220947266",
        "altitude_local": "0.802617609500885",
        "altitude_relative": "0.802617609500885",
        "altitude_terrain": "nan",
        "bottom_clearance": "nan"
    },
    {
        "mavpackettype": "MOUNT_ORIENTATION",
        "time_boot_ms": "584355",
        "roll": "0.0",
        "pitch": "-0.0",
        "yaw": "0.0",
        "yaw_absolute": "142.6814727783203"
    },
    {
        "mavpackettype": "ATTITUDE_TARGET",
        "time_boot_ms": "584359",
        "type_mask": "0",
        "q": "[0.31993430852890015, 0.0, 0.0, 0.9474397301673889]",
        "body_roll_rate": "0.12519672513008118",
        "body_pitch_rate": "0.2955850064754486",
        "body_yaw_rate": "0.0011139388661831617",
        "thrust": "0.0010000000474974513"
    },
    {
        "mavpackettype": "POSITION_TARGET_LOCAL_NED",
        "time_boot_ms": "584359",
        "coordinate_frame": "1",
        "type_mask": "63",
        "x": "nan",
        "y": "nan",
        "z": "nan",
        "vx": "nan",
        "vy": "nan",
        "vz": "nan",
        "afx": "0.0",
        "afy": "0.0",
        "afz": "100.0",
        "yaw": "2.490272283554077",
        "yaw_rate": "0.0"
    },
    {
        "mavpackettype": "VFR_HUD",
        "airspeed": "0.0",
        "groundspeed": "0.0015406780876219273",
        "heading": "142",
        "throttle": "0",
        "alt": "-65.89945220947266",
        "climb": "0.0003791287890635431"
    },
    {
        "mavpackettype": "ATTITUDE",
        "time_boot_ms": "584374",
        "roll": "-0.015659496188163757",
        "pitch": "-0.036944542080163956",
        "yaw": "2.4903008937835693",
        "rollspeed": "-0.0005377278430387378",
        "pitchspeed": "-0.0009622559882700443",
        "yawspeed": "2.9115413781255484e-05"
    },
    {
        "mavpackettype": "HIGHRES_IMU",
        "time_usec": "584408812",
        "xacc": "-0.36013585329055786",
        "yacc": "0.157225102186203",
        "zacc": "-9.795470237731934",
        "xgyro": "0.0002362618688493967",
        "ygyro": "-0.0006688316352665424",
        "zgyro": "8.518563117831945e-05",
        "xmag": "-0.38132333755493164",
        "ymag": "-0.2897956967353821",
        "zmag": "0.27734577655792236",
        "abs_pressure": "102119.0",
        "diff_pressure": "0.0",
        "pressure_alt": "-65.89945220947266",
        "temperature": "30.01999855041504",
        "fields_updated": "7167",
        "id": "0"
    },
    {
        "mavpackettype": "ATTITUDE_QUATERNION",
        "time_boot_ms": "584409",
        "q1": "0.31997063755989075",
        "q2": "0.015002511441707611",
        "q3": "-0.01333119161427021",
        "q4": "0.9472149014472961",
        "rollspeed": "0.0006810158956795931",
        "pitchspeed": "-0.0004971013404428959",
        "yawspeed": "0.00011126551544293761",
        "repr_offset_q": "[0.0, 0.0, 0.0, 0.0]"
    },
    {
        "mavpackettype": "ATTITUDE",
        "time_boot_ms": "584418",
        "roll": "-0.01566281169652939",
        "pitch": "-0.03696303069591522",
        "yaw": "2.490360975265503",
        "rollspeed": "-0.00024186389055103064",
        "pitchspeed": "-0.00045514339581131935",
        "yawspeed": "0.00018009397899731994"
    },
    {
        "mavpackettype": "ATTITUDE",
        "time_boot_ms": "584468",
        "roll": "-0.015670256689190865",
        "pitch": "-0.0369655005633831",
        "yaw": "2.4904494285583496",
        "rollspeed": "-0.00021484715398401022",
        "pitchspeed": "-0.0005412162281572819",
        "yawspeed": "0.001122953835874796"
    },
    {
        "mavpackettype": "LOCAL_POSITION_NED",
        "time_boot_ms": "584488",
        "x": "0.0002866928407456726",
        "y": "0.0004200367839075625",
        "z": "-0.8024379014968872",
        "vx": "0.00078634760575369",
        "vy": "0.0011824098182842135",
        "vz": "-0.000574647739995271"
    },
    {
        "mavpackettype": "ODOMETRY",
        "time_usec": "584488094",
        "frame_id": "1",
        "child_frame_id": "1",
        "x": "0.0002866928407456726",
        "y": "0.0004200367839075625",
        "z": "-0.8024379014968872",
        "q": "[0.3199090361595154, 0.015000805258750916, -0.013336272910237312, 0.947235643863678]",
        "vx": "0.00078634760575369",
        "vy": "0.0011824098182842135",
        "vz": "-0.000574647739995271",
        "rollspeed": "-8.575023093726486e-05",
        "pitchspeed": "-0.0007226314628496766",
        "yawspeed": "0.000664254417642951",
        "pose_covariance": "[7.986670243553817e-05, nan, nan, nan, nan, nan, 7.986745913513005e-05, nan, nan, nan, nan, 0.07621095329523087, nan, nan, nan, 2.6681482268031687e-05, nan, nan, 2.4067374397418462e-05, nan, 0.0009574820287525654]",
        "velocity_covariance": "[0.000753124593757093, nan, nan, nan, nan, nan, 0.0007531418814323843, nan, nan, nan, nan, 0.0050876750610768795, nan, nan, nan, nan, nan, nan, nan, nan, nan]",
        "reset_counter": "6",
        "estimator_type": "8",
        "quality": "0"
    },
    {
        "mavpackettype": "HIGHRES_IMU",
        "time_usec": "584507915",
        "xacc": "-0.3536120355129242",
        "yacc": "0.1544724553823471",
        "zacc": "-9.796936988830566",
        "xgyro": "-0.0007155063794925809",
        "ygyro": "-0.00042395712807774544",
        "zgyro": "0.0005014178459532559",
        "xmag": "-0.37991631031036377",
        "ymag": "-0.2905765175819397",
        "zmag": "0.2773261070251465",
        "abs_pressure": "102116.0",
        "diff_pressure": "0.0",
        "pressure_alt": "-65.64579010009766",
        "temperature": "30.029998779296875",
        "fields_updated": "7167",
        "id": "0"
    },
    {
        "mavpackettype": "ATTITUDE_QUATERNION",
        "time_boot_ms": "584508",
        "q1": "0.31989437341690063",
        "q2": "0.015000558458268642",
        "q3": "-0.013336027041077614",
        "q4": "0.9472405910491943",
        "rollspeed": "-0.00024963764008134604",
        "pitchspeed": "-0.0007481561042368412",
        "yawspeed": "0.0002791950828395784",
        "repr_offset_q": "[0.0, 0.0, 0.0, 0.0]"
    },
    {
        "mavpackettype": "ATTITUDE",
        "time_boot_ms": "584518",
        "roll": "-0.015677688643336296",
        "pitch": "-0.03696059063076973",
        "yaw": "2.4905285835266113",
        "rollspeed": "-5.499215330928564e-05",
        "pitchspeed": "-0.0004353621043264866",
        "yawspeed": "0.0014699692837893963"
    },
    {
        "mavpackettype": "ATTITUDE",
        "time_boot_ms": "584562",
        "roll": "-0.01566835306584835",
        "pitch": "-0.03695829585194588",
        "yaw": "2.4905993938446045",
        "rollspeed": "0.000701006269082427",
        "pitchspeed": "-0.0006242231465876102",
        "yawspeed": "0.0003817523247562349"
    },
    {
        "mavpackettype": "HIGHRES_IMU",
        "time_usec": "584602063",
        "xacc": "-0.3632301390171051",
        "yacc": "0.15136022865772247",
        "zacc": "-9.80042839050293",
        "xgyro": "1.287856139242649e-05",
        "ygyro": "6.850363570265472e-05",
        "zgyro": "0.000650478177703917",
        "xmag": "-0.38072699308395386",
        "ymag": "-0.2926722466945648",
        "zmag": "0.27621597051620483",
        "abs_pressure": "102115.0",
        "diff_pressure": "0.0",
        "pressure_alt": "-65.56652069091797",
        "temperature": "30.029998779296875",
        "fields_updated": "7167",
        "id": "0"
    },
    {
        "mavpackettype": "ATTITUDE_QUATERNION",
        "time_boot_ms": "584602",
        "q1": "0.3198260962963104",
        "q2": "0.015008342452347279",
        "q3": "-0.013325615786015987",
        "q4": "0.9472636580467224",
        "rollspeed": "-0.0009332663612440228",
        "pitchspeed": "0.00020066762226633728",
        "yawspeed": "4.6934583224356174e-05",
        "repr_offset_q": "[0.0, 0.0, 0.0, 0.0]"
    },
    {
        "mavpackettype": "ATTITUDE",
        "time_boot_ms": "584612",
        "roll": "-0.015656711533665657",
        "pitch": "-0.03696106746792793",
        "yaw": "2.4906680583953857",
        "rollspeed": "0.0007320153526961803",
        "pitchspeed": "5.130210774950683e-05",
        "yawspeed": "0.000542295747436583"
    },
    {
        "mavpackettype": "UNKNOWN_411",
        "data": "bytearray(b'\\xfd\\x01\\x00\\x00Q\\x01\\x01\\x9b\\x01\\x00xh\\x16')"
    },
    {
        "mavpackettype": "LOCAL_POSITION_NED",
        "time_boot_ms": "584647",
        "x": "0.00028036226285621524",
        "y": "0.00041489466093480587",
        "z": "-0.802605926990509",
        "vx": "0.00047940612421371043",
        "vy": "0.001121014473028481",
        "vz": "-0.00048548445920459926"
    },
    {
        "mavpackettype": "ODOMETRY",
        "time_usec": "584646659",
        "frame_id": "1",
        "child_frame_id": "1",
        "x": "0.00028036226285621524",
        "y": "0.00041489466093480587",
        "z": "-0.802605926990509",
        "q": "[0.319797158241272, 0.015009317547082901, -0.013325061649084091, 0.9472734928131104]",
        "vx": "0.00047940612421371043",
        "vy": "0.001121014473028481",
        "vz": "-0.00048548445920459926",
        "rollspeed": "1.9592333046603017e-05",
        "pitchspeed": "9.604259503248613e-06",
        "yawspeed": "0.00042377234785817564",
        "pose_covariance": "[6.430657958844677e-05, nan, nan, nan, nan, nan, 6.430703069781885e-05, nan, nan, nan, nan, 0.07575761526823044, nan, nan, nan, 2.641589344420936e-05, nan, nan, 2.380157820880413e-05, nan, 0.0009564336505718529]",
        "velocity_covariance": "[0.0006622434593737125, nan, nan, nan, nan, nan, 0.0006622564978897572, nan, nan, nan, nan, 0.004943937994539738, nan, nan, nan, nan, nan, nan, nan, nan, nan]",
        "reset_counter": "6",
        "estimator_type": "8",
        "quality": "0"
    },
    {
        "mavpackettype": "ATTITUDE",
        "time_boot_ms": "584656",
        "roll": "-0.015652231872081757",
        "pitch": "-0.03696207329630852",
        "yaw": "2.490731716156006",
        "rollspeed": "0.000662525650113821",
        "pitchspeed": "-0.00018778143567033112",
        "yawspeed": "0.0008328125113621354"
    },
    {
        "mavpackettype": "HEARTBEAT",
        "type": "2",
        "autopilot": "12",
        "base_mode": "29",
        "custom_mode": "50593792",
        "system_status": "3",
        "mavlink_version": "3"
    },
    {
        "mavpackettype": "PING",
        "time_usec": "584682484",
        "seq": "583",
        "target_system": "0",
        "target_component": "0"
    },
    {
        "mavpackettype": "HIGHRES_IMU",
        "time_usec": "584706121",
        "xacc": "-0.3532043993473053",
        "yacc": "0.15423238277435303",
        "zacc": "-9.787351608276367",
        "xgyro": "-0.000911594950594008",
        "ygyro": "0.00030908288317732513",
        "zgyro": "9.428022895008326e-05",
        "xmag": "-0.3813466727733612",
        "ymag": "-0.2914089858531952",
        "zmag": "0.27742889523506165",
        "abs_pressure": "102113.0",
        "diff_pressure": "0.0",
        "pressure_alt": "-65.40269470214844",
        "temperature": "30.029998779296875",
        "fields_updated": "7167",
        "id": "0"
    },
    {
        "mavpackettype": "ATTITUDE_QUATERNION",
        "time_boot_ms": "584706",
        "q1": "0.31975609064102173",
        "q2": "0.015003769658505917",
        "q3": "-0.013324315659701824",
        "q4": "0.9472874402999878",
        "rollspeed": "-0.0009742769179865718",
        "pitchspeed": "0.00020098427194170654",
        "yawspeed": "5.5266194976866245e-05",
        "repr_offset_q": "[0.0, 0.0, 0.0, 0.0]"
    },
    {
        "mavpackettype": "ATTITUDE",
        "time_boot_ms": "584711",
        "roll": "-0.015662280842661858",
        "pitch": "-0.036955732852220535",
        "yaw": "2.490812301635742",
        "rollspeed": "-0.0005732112331315875",
        "pitchspeed": "0.0006468279752880335",
        "yawspeed": "0.0010931264841929078"
    },
    {
        "mavpackettype": "ATTITUDE",
        "time_boot_ms": "584755",
        "roll": "-0.015657367184758186",
        "pitch": "-0.036961350589990616",
        "yaw": "2.4908885955810547",
        "rollspeed": "6.943708285689354e-05",
        "pitchspeed": "-0.000489621190354228",
        "yawspeed": "0.00044164026621729136"
    },
    {
        "mavpackettype": "HIGHRES_IMU",
        "time_usec": "584800268",
        "xacc": "-0.3602674603462219",
        "yacc": "0.15240567922592163",
        "zacc": "-9.782712936401367",
        "xgyro": "0.0003498306032270193",
        "ygyro": "-0.00041940316441468894",
        "zgyro": "0.0011693543056026101",
        "xmag": "-0.379952609539032",
        "ymag": "-0.2914199233055115",
        "zmag": "0.2781252861022949",
        "abs_pressure": "102118.0",
        "diff_pressure": "0.0",
        "pressure_alt": "-65.81489562988281",
        "temperature": "30.01999855041504",
        "fields_updated": "7167",
        "id": "0"
    },
    {
        "mavpackettype": "ATTITUDE_QUATERNION",
        "time_boot_ms": "584800",
        "q1": "0.3196904957294464",
        "q2": "0.015007820911705494",
        "q3": "-0.013321265578269958",
        "q4": "0.9473094940185547",
        "rollspeed": "0.00044387299567461014",
        "pitchspeed": "-0.000363562983693555",
        "yawspeed": "0.001317214802838862",
        "repr_offset_q": "[0.0, 0.0, 0.0, 0.0]"
    },
    {
        "mavpackettype": "ATTITUDE",
        "time_boot_ms": "584810",
        "roll": "-0.015655560418963432",
        "pitch": "-0.036962125450372696",
        "yaw": "2.4909534454345703",
        "rollspeed": "-0.00020697235595434904",
        "pitchspeed": "-0.00024404263240285218",
        "yawspeed": "0.00039913656655699015"
    },
    {
        "mavpackettype": "LOCAL_POSITION_NED",
        "time_boot_ms": "584805",
        "x": "0.0002453983761370182",
        "y": "0.00039315875619649887",
        "z": "-0.8037907481193542",
        "vx": "0.0001924132084241137",
        "vy": "0.0011909097665920854",
        "vz": "-0.0005859285010956228"
    },
    {
        "mavpackettype": "ODOMETRY",
        "time_usec": "584805223",
        "frame_id": "1",
        "child_frame_id": "1",
        "x": "0.0002453983761370182",
        "y": "0.00039315875619649887",
        "z": "-0.8037907481193542",
        "q": "[0.3196876049041748, 0.015008371323347092, -0.01332191750407219, 0.9473104476928711]",
        "vx": "0.0001924132084241137",
        "vy": "0.0011909097665920854",
        "vz": "-0.0005859285010956228",
        "rollspeed": "-0.000252591329626739",
        "pitchspeed": "-0.0003116305742878467",
        "yawspeed": "0.0002193939872086048",
        "pose_covariance": "[0.00012722148676402867, nan, nan, nan, nan, nan, 0.00012722320389002562, nan, nan, nan, nan, 0.0753258690237999, nan, nan, nan, 2.7346501155989245e-05, nan, nan, 2.473138738423586e-05, nan, 0.0009567778324708343]",
        "velocity_covariance": "[0.0009491779492236674, nan, nan, nan, nan, nan, 0.0009492032695561647, nan, nan, nan, nan, 0.004802502691745758, nan, nan, nan, nan, nan, nan, nan, nan, nan]",
        "reset_counter": "6",
        "estimator_type": "8",
        "quality": "0"
    },
    {
        "mavpackettype": "TIMESYNC",
        "tc1": "0",
        "ts1": "584844390000"
    },
    {
        "mavpackettype": "ALTITUDE",
        "time_usec": "584844412",
        "altitude_monotonic": "-65.81489562988281",
        "altitude_amsl": "-65.81489562988281",
        "altitude_local": "0.8040556311607361",
        "altitude_relative": "0.8040556311607361",
        "altitude_terrain": "nan",
        "bottom_clearance": "nan"
    },
    {
        "mavpackettype": "MOUNT_ORIENTATION",
        "time_boot_ms": "584838",
        "roll": "0.0",
        "pitch": "-0.0",
        "yaw": "0.0",
        "yaw_absolute": "142.72377014160156"
    },
    {
        "mavpackettype": "ATTITUDE_TARGET",
        "time_boot_ms": "584845",
        "type_mask": "0",
        "q": "[0.31958964467048645, 0.0, 0.0, 0.9475560188293457]",
        "body_roll_rate": "0.12522292137145996",
        "body_pitch_rate": "0.29561761021614075",
        "body_yaw_rate": "0.0011127423495054245",
        "thrust": "0.0010000000474974513"
    },
    {
        "mavpackettype": "POSITION_TARGET_LOCAL_NED",
        "time_boot_ms": "584845",
        "coordinate_frame": "1",
        "type_mask": "63",
        "x": "nan",
        "y": "nan",
        "z": "nan",
        "vx": "nan",
        "vy": "nan",
        "vz": "nan",
        "afx": "0.0",
        "afy": "0.0",
        "afz": "100.0",
        "yaw": "2.490999937057495",
        "yaw_rate": "0.0"
    },
    {
        "mavpackettype": "VFR_HUD",
        "airspeed": "0.0",
        "groundspeed": "0.0012765470892190933",
        "heading": "142",
        "throttle": "0",
        "alt": "-65.81489562988281",
        "climb": "0.00038845904055051506"
    },
    {
        "mavpackettype": "ATTITUDE",
        "time_boot_ms": "584860",
        "roll": "-0.015657415613532066",
        "pitch": "-0.03696204349398613",
        "yaw": "2.491015672683716",
        "rollspeed": "0.00028380611911416054",
        "pitchspeed": "6.725007551722229e-05",
        "yawspeed": "0.0003346257144585252"
    },
    {
        "mavpackettype": "HIGHRES_IMU",
        "time_usec": "584899371",
        "xacc": "-0.35425031185150146",
        "yacc": "0.15013089776039124",
        "zacc": "-9.79411506652832",
        "xgyro": "-0.00037942652124911547",
        "ygyro": "-0.000391176639823243",
        "zgyro": "0.0010295151732861996",
        "xmag": "-0.379952609539032",
        "ymag": "-0.2914199233055115",
        "zmag": "0.2781252861022949",
        "abs_pressure": "102118.0",
        "diff_pressure": "0.0",
        "pressure_alt": "-65.81489562988281",
        "temperature": "30.029998779296875",
        "fields_updated": "6719",
        "id": "0"
    },
    {
        "mavpackettype": "ATTITUDE_QUATERNION",
        "time_boot_ms": "584899",
        "q1": "0.31962817907333374",
        "q2": "0.015010297298431396",
        "q3": "-0.013327165506780148",
        "q4": "0.9473304748535156",
        "rollspeed": "-0.0004829905228689313",
        "pitchspeed": "-0.00037056280416436493",
        "yawspeed": "0.0012050379300490022",
        "repr_offset_q": "[0.0, 0.0, 0.0, 0.0]"
    },
    {
        "mavpackettype": "ATTITUDE",
        "time_boot_ms": "584904",
        "roll": "-0.015666985884308815",
        "pitch": "-0.0369676798582077",
        "yaw": "2.4910802841186523",
        "rollspeed": "0.0001976536586880684",
        "pitchspeed": "-0.001038702903315425",
        "yawspeed": "0.0006767526501789689"
    },
    {
        "mavpackettype": "ATTITUDE",
        "time_boot_ms": "584954",
        "roll": "-0.01566002517938614",
        "pitch": "-0.036966461688280106",
        "yaw": "2.4911508560180664",
        "rollspeed": "-7.448962423950434e-05",
        "pitchspeed": "9.624959784559906e-05",
        "yawspeed": "0.00012869725469499826"
    },
    {
        "mavpackettype": "LOCAL_POSITION_NED",
        "time_boot_ms": "584974",
        "x": "0.00017728788952808827",
        "y": "0.0003783032298088074",
        "z": "-0.8047884106636047",
        "vx": "-9.975161810871214e-05",
        "vy": "0.001288460218347609",
        "vz": "-0.000305071851471439"
    },
    {
        "mavpackettype": "ODOMETRY",
        "time_usec": "584973698",
        "frame_id": "1",
        "child_frame_id": "1",
        "x": "0.00017728788952808827",
        "y": "0.0003783032298088074",
        "z": "-0.8047884106636047",
        "q": "[0.3195755183696747, 0.015014726668596268, -0.0133241917937994, 0.9473482370376587]",
        "vx": "-9.975161810871214e-05",
        "vy": "0.001288460218347609",
        "vz": "-0.000305071851471439",
        "rollspeed": "-0.0002799414505716413",
        "pitchspeed": "-0.00010337503772461787",
        "yawspeed": "0.0008561217691749334",
        "pose_covariance": "[0.00010716138785937801, nan, nan, nan, nan, nan, 0.00010716264660004526, nan, nan, nan, nan, 0.07506022602319717, nan, nan, nan, 2.713329013204202e-05, nan, nan, 2.451706495776307e-05, nan, 0.0009573142742738128]",
        "velocity_covariance": "[0.0008700951002538204, nan, nan, nan, nan, nan, 0.0008701172773726285, nan, nan, nan, nan, 0.004691710229963064, nan, nan, nan, nan, nan, nan, nan, nan, nan]",
        "reset_counter": "6",
        "estimator_type": "8",
        "quality": "0"
    },
    {
        "mavpackettype": "HIGHRES_IMU",
        "time_usec": "584993519",
        "xacc": "-0.3600289225578308",
        "yacc": "0.15022166073322296",
        "zacc": "-9.802525520324707",
        "xgyro": "-0.00034202123060822487",
        "ygyro": "-0.0007941114017739892",
        "zgyro": "0.00019753590459004045",
        "xmag": "-0.3813535273075104",
        "ymag": "-0.29220879077911377",
        "zmag": "0.27747219800949097",
        "abs_pressure": "102117.0",
        "diff_pressure": "0.0",
        "pressure_alt": "-65.73033905029297",
        "temperature": "30.029998779296875",
        "fields_updated": "7167",
        "id": "0"
    },
    {
        "mavpackettype": "ATTITUDE_QUATERNION",
        "time_boot_ms": "584998",
        "q1": "0.31955888867378235",
        "q2": "0.015018874779343605",
        "q3": "-0.01332028117030859",
        "q4": "0.9473537802696228",
        "rollspeed": "0.0004770341329276562",
        "pitchspeed": "-0.0005198370199650526",
        "yawspeed": "0.0011075712973251939",
        "repr_offset_q": "[0.0, 0.0, 0.0, 0.0]"
    },
    {
        "mavpackettype": "ATTITUDE",
        "time_boot_ms": "585008",
        "roll": "-0.015651173889636993",
        "pitch": "-0.03697585687041283",
        "yaw": "2.4912333488464355",
        "rollspeed": "-0.000581510947085917",
        "pitchspeed": "0.0008250030223280191",
        "yawspeed": "0.0010372527176514268"
    },
    {
        "mavpackettype": "ATTITUDE",
        "time_boot_ms": "585053",
        "roll": "-0.015662983059883118",
        "pitch": "-0.03697986900806427",
        "yaw": "2.491302251815796",
        "rollspeed": "-0.0005262686172500253",
        "pitchspeed": "-0.0003240488294977695",
        "yawspeed": "0.0009016642579808831"
    },
    {
        "mavpackettype": "HIGHRES_IMU",
        "time_usec": "585092622",
        "xacc": "-0.3562266230583191",
        "yacc": "0.14312681555747986",
        "zacc": "-9.792019844055176",
        "xgyro": "0.0005057069938629866",
        "ygyro": "0.00037820934085175395",
        "zgyro": "0.0005355809116736054",
        "xmag": "-0.38000503182411194",
        "ymag": "-0.290697306394577",
        "zmag": "0.27959269285202026",
        "abs_pressure": "102118.0",
        "diff_pressure": "0.0",
        "pressure_alt": "-65.81489562988281",
        "temperature": "30.029998779296875",
        "fields_updated": "7167",
        "id": "0"
    },
    {
        "mavpackettype": "ATTITUDE_QUATERNION",
        "time_boot_ms": "585092",
        "q1": "0.3194902241230011",
        "q2": "0.015013715252280235",
        "q3": "-0.01332673616707325",
        "q4": "0.9473769664764404",
        "rollspeed": "-0.0001514317700639367",
        "pitchspeed": "0.00046998748439364135",
        "yawspeed": "0.001076731481589377",
        "repr_offset_q": "[0.0, 0.0, 0.0, 0.0]"
    },
    {
        "mavpackettype": "ATTITUDE",
        "time_boot_ms": "585102",
        "roll": "-0.015668600797653198",
        "pitch": "-0.036970727145671844",
        "yaw": "2.491377115249634",
        "rollspeed": "0.0003178040497004986",
        "pitchspeed": "-0.00024273319286294281",
        "yawspeed": "0.0003817934775725007"
    },
    {
        "mavpackettype": "LOCAL_POSITION_NED",
        "time_boot_ms": "585132",
        "x": "0.00013625768769998103",
        "y": "0.00040513931890018284",
        "z": "-0.8051019310951233",
        "vx": "0.00020713663252536207",
        "vy": "0.0015907478518784046",
        "vz": "-2.1566283976426348e-05"
    },
    {
        "mavpackettype": "ODOMETRY",
        "time_usec": "585132263",
        "frame_id": "1",
        "child_frame_id": "1",
        "x": "0.00013625768769998103",
        "y": "0.00040513931890018284",
        "z": "-0.8051019310951233",
        "q": "[0.31946200132369995, 0.015010004863142967, -0.013329493813216686, 0.9473865032196045]",
        "vx": "0.00020713663252536207",
        "vy": "0.0015907478518784046",
        "vz": "-2.1566283976426348e-05",
        "rollspeed": "4.08992673328612e-05",
        "pitchspeed": "-0.00012930903176311404",
        "yawspeed": "0.0007574145565740764",
        "pose_covariance": "[8.718802564544603e-05, nan, nan, nan, nan, nan, 8.718889148440212e-05, nan, nan, nan, nan, 0.07612482458353043, nan, nan, nan, 2.6915697162621655e-05, nan, nan, 2.429853702778928e-05, nan, 0.0009576638112775981]",
        "velocity_covariance": "[0.0007906020036898553, nan, nan, nan, nan, nan, 0.0007906216196715832, nan, nan, nan, nan, 0.005145009141415358, nan, nan, nan, nan, nan, nan, nan, nan, nan]",
        "reset_counter": "6",
        "estimator_type": "8",
        "quality": "0"
    },
    {
        "mavpackettype": "ATTITUDE",
        "time_boot_ms": "585147",
        "roll": "-0.015672404319047928",
        "pitch": "-0.036968883126974106",
        "yaw": "2.491443634033203",
        "rollspeed": "-0.00026258116122335196",
        "pitchspeed": "-0.0002562410954851657",
        "yawspeed": "0.00027884880546480417"
    },
    {
        "mavpackettype": "HIGHRES_IMU",
        "time_usec": "585191725",
        "xacc": "-0.3693951666355133",
        "yacc": "0.14908485114574432",
        "zacc": "-9.804739952087402",
        "xgyro": "0.00047316448763012886",
        "ygyro": "-0.00047115309280343354",
        "zgyro": "-0.00036203430499881506",
        "xmag": "-0.38000503182411194",
        "ymag": "-0.290697306394577",
        "zmag": "0.27959269285202026",
        "abs_pressure": "102118.0",
        "diff_pressure": "0.0",
        "pressure_alt": "-65.81489562988281",
        "temperature": "30.029998779296875",
        "fields_updated": "6719",
        "id": "0"
    },
    {
        "mavpackettype": "ATTITUDE_QUATERNION",
        "time_boot_ms": "585191",
        "q1": "0.3194297254085541",
        "q2": "0.015015728771686554",
        "q3": "-0.013323456980288029",
        "q4": "0.9473973512649536",
        "rollspeed": "0.00011886376887559891",
        "pitchspeed": "-8.68167553562671e-05",
        "yawspeed": "-6.435287650674582e-05",
        "repr_offset_q": "[0.0, 0.0, 0.0, 0.0]"
    },
    {
        "mavpackettype": "ATTITUDE",
        "time_boot_ms": "585196",
        "roll": "-0.015662381425499916",
        "pitch": "-0.036974694579839706",
        "yaw": "2.4914979934692383",
        "rollspeed": "5.2364543080329895e-05",
        "pitchspeed": "-4.726534825749695e-05",
        "yawspeed": "0.00010205025319010019"
    },
    {
        "mavpackettype": "ATTITUDE",
        "time_boot_ms": "585246",
        "roll": "-0.01566523127257824",
        "pitch": "-0.036979954689741135",
        "yaw": "2.4915611743927",
        "rollspeed": "-0.0003960252506658435",
        "pitchspeed": "-0.00033653786522336304",
        "yawspeed": "0.0008728919783607125"
    },
    {
        "mavpackettype": "HIGHRES_IMU",
        "time_usec": "585290827",
        "xacc": "-0.36535489559173584",
        "yacc": "0.14965400099754333",
        "zacc": "-9.799859046936035",
        "xgyro": "0.00012511364184319973",
        "ygyro": "0.0005464006680995226",
        "zgyro": "0.0009350818581879139",
        "xmag": "-0.3814619183540344",
        "ymag": "-0.29314354062080383",
        "zmag": "0.27978086471557617",
        "abs_pressure": "102117.0",
        "diff_pressure": "0.0",
        "pressure_alt": "-65.73033905029297",
        "temperature": "30.029998779296875",
        "fields_updated": "7167",
        "id": "0"
    },
    {
        "mavpackettype": "ATTITUDE_QUATERNION",
        "time_boot_ms": "585291",
        "q1": "0.31936267018318176",
        "q2": "0.015016427263617516",
        "q3": "-0.013319899328052998",
        "q4": "0.9474200010299683",
        "rollspeed": "0.00012420350685715675",
        "pitchspeed": "0.0006254652980715036",
        "yawspeed": "0.0010367451468482614",
        "repr_offset_q": "[0.0, 0.0, 0.0, 0.0]"
    },
    {
        "mavpackettype": "ATTITUDE",
        "time_boot_ms": "585296",
        "roll": "-0.015657007694244385",
        "pitch": "-0.03697129711508751",
        "yaw": "2.491637945175171",
        "rollspeed": "0.00039112381637096405",
        "pitchspeed": "-0.0005282170604914427",
        "yawspeed": "0.0011836510384455323"
    },
    {
        "mavpackettype": "LOCAL_POSITION_NED",
        "time_boot_ms": "585301",
        "x": "0.00012882467126473784",
        "y": "0.00045975050306878984",
        "z": "-0.8057807683944702",
        "vx": "0.0006014982354827225",
        "vy": "0.0014076087391003966",
        "vz": "-0.0003116504813078791"
    },
    {
        "mavpackettype": "ODOMETRY",
        "time_usec": "585300738",
        "frame_id": "1",
        "child_frame_id": "1",
        "x": "0.00012882467126473784",
        "y": "0.00045975050306878984",
        "z": "-0.8057807683944702",
        "q": "[0.3193555176258087, 0.015018812380731106, -0.013317786157131195, 0.9474223852157593]",
        "vx": "0.0006014982354827225",
        "vy": "0.0014076087391003966",
        "vz": "-0.0003116504813078791",
        "rollspeed": "0.000589001108892262",
        "pitchspeed": "-0.00042669428512454033",
        "yawspeed": "0.001154117751866579",
        "pose_covariance": "[7.319668657146394e-05, nan, nan, nan, nan, nan, 7.319729775190353e-05, nan, nan, nan, nan, 0.07536181062459946, nan, nan, nan, 2.669455534487497e-05, nan, nan, 2.407748979749158e-05, nan, 0.0009582024649716914]",
        "velocity_covariance": "[0.0007164147100411355, nan, nan, nan, nan, nan, 0.000716431881301105, nan, nan, nan, nan, 0.005024844780564308, nan, nan, nan, nan, nan, nan, nan, nan, nan]",
        "reset_counter": "6",
        "estimator_type": "8",
        "quality": "0"
    },
    {
        "mavpackettype": "EXTENDED_SYS_STATE",
        "vtol_state": "0",
        "landed_state": "1"
    },
    {
        "mavpackettype": "SYS_STATUS",
        "onboard_control_sensors_present": "35651597",
        "onboard_control_sensors_enabled": "35717133",
        "onboard_control_sensors_health": "539000895",
        "load": "323",
        "voltage_battery": "7295",
        "current_battery": "1",
        "battery_remaining": "0",
        "drop_rate_comm": "0",
        "errors_comm": "0",
        "errors_count1": "0",
        "errors_count2": "0",
        "errors_count3": "0",
        "errors_count4": "0"
    },
    {
        "mavpackettype": "TIMESYNC",
        "tc1": "0",
        "ts1": "585334586000"
    },
    {
        "mavpackettype": "ALTITUDE",
        "time_usec": "585335217",
        "altitude_monotonic": "-65.81489562988281",
        "altitude_amsl": "-65.81489562988281",
        "altitude_local": "0.805960476398468",
        "altitude_relative": "0.805960476398468",
        "altitude_terrain": "nan",
        "bottom_clearance": "nan"
    },
    {
        "mavpackettype": "MOUNT_ORIENTATION",
        "time_boot_ms": "585323",
        "roll": "0.0",
        "pitch": "-0.0",
        "yaw": "0.0",
        "yaw_absolute": "142.762939453125"
    },
    {
        "mavpackettype": "ATTITUDE_TARGET",
        "time_boot_ms": "585340",
        "type_mask": "0",
        "q": "[0.3192586600780487, 0.0, 0.0, 0.94766765832901]",
        "body_roll_rate": "0.12523745000362396",
        "body_pitch_rate": "0.2958088517189026",
        "body_yaw_rate": "0.0010978317586705089",
        "thrust": "0.0010000000474974513"
    },
    {
        "mavpackettype": "POSITION_TARGET_LOCAL_NED",
        "time_boot_ms": "585340",
        "coordinate_frame": "1",
        "type_mask": "63",
        "x": "nan",
        "y": "nan",
        "z": "nan",
        "vx": "nan",
        "vy": "nan",
        "vz": "nan",
        "afx": "0.0",
        "afy": "0.0",
        "afz": "100.0",
        "yaw": "2.4916985034942627",
        "yaw_rate": "0.0"
    },
    {
        "mavpackettype": "VFR_HUD",
        "airspeed": "0.0",
        "groundspeed": "0.001595049281604588",
        "heading": "142",
        "throttle": "0",
        "alt": "-65.81489562988281",
        "climb": "0.00039954870590008795"
    },
    {
        "mavpackettype": "ATTITUDE",
        "time_boot_ms": "585355",
        "roll": "-0.01565677858889103",
        "pitch": "-0.03698234632611275",
        "yaw": "2.4917197227478027",
        "rollspeed": "0.000520853791385889",
        "pitchspeed": "-0.00021281352383084595",
        "yawspeed": "5.2969553507864475e-05"
    },
    {
        "mavpackettype": "HIGHRES_IMU",
        "time_usec": "585384975",
        "xacc": "-0.358143150806427",
        "yacc": "0.15884023904800415",
        "zacc": "-9.802434921264648",
        "xgyro": "-9.828247129917145e-06",
        "ygyro": "0.00010666179150575772",
        "zgyro": "0.00042739370837807655",
        "xmag": "-0.3799266815185547",
        "ymag": "-0.2913771867752075",
        "zmag": "0.27736812829971313",
        "abs_pressure": "102118.0",
        "diff_pressure": "0.0",
        "pressure_alt": "-65.81489562988281",
        "temperature": "30.029998779296875",
        "fields_updated": "7167",
        "id": "0"
    },
    {
        "mavpackettype": "ATTITUDE_QUATERNION",
        "time_boot_ms": "585385",
        "q1": "0.3193032145500183",
        "q2": "0.015018650330603123",
        "q3": "-0.013317018747329712",
        "q4": "0.9474400281906128",
        "rollspeed": "0.00026156799867749214",
        "pitchspeed": "-0.0005228004883974791",
        "yawspeed": "0.0006634049350395799",
        "repr_offset_q": "[0.0, 0.0, 0.0, 0.0]"
    },
    {
        "mavpackettype": "ATTITUDE",
        "time_boot_ms": "585395",
        "roll": "-0.015655940398573875",
        "pitch": "-0.036975424736738205",
        "yaw": "2.491767644882202",
        "rollspeed": "-0.0005527624161913991",
        "pitchspeed": "-0.0006638679187744856",
        "yawspeed": "0.0005715364823117852"
    },
    {
        "mavpackettype": "ATTITUDE",
        "time_boot_ms": "585444",
        "roll": "-0.015654530376195908",
        "pitch": "-0.036965515464544296",
        "yaw": "2.491835832595825",
        "rollspeed": "1.5102792531251907e-05",
        "pitchspeed": "0.001343155512586236",
        "yawspeed": "0.000616182223893702"
    },
    {
        "mavpackettype": "LOCAL_POSITION_NED",
        "time_boot_ms": "585459",
        "x": "0.0001611752959433943",
        "y": "0.00047839173930697143",
        "z": "-0.8064879775047302",
        "vx": "0.0004488788254093379",
        "vy": "0.0012172696879133582",
        "vz": "-0.0004700557910837233"
    },
    {
        "mavpackettype": "ODOMETRY",
        "time_usec": "585459302",
        "frame_id": "1",
        "child_frame_id": "1",
        "x": "0.0001611752959433943",
        "y": "0.00047839173930697143",
        "z": "-0.8064879775047302",
        "q": "[0.3192558288574219, 0.01501548383384943, -0.01331755518913269, 0.9474560022354126]",
        "vx": "0.0004488788254093379",
        "vy": "0.0012172696879133582",
        "vz": "-0.0004700557910837233",
        "rollspeed": "-0.0001483800442656502",
        "pitchspeed": "0.00027434411458671093",
        "yawspeed": "0.000509018253069371",
        "pose_covariance": "[5.9087607951369137e-05, nan, nan, nan, nan, nan, 5.908797902520746e-05, nan, nan, nan, nan, 0.07539190351963043, nan, nan, nan, 2.6409936253912747e-05, nan, nan, 2.379234865657054e-05, nan, 0.0009585391380824149]",
        "velocity_covariance": "[0.0006269692676141858, nan, nan, nan, nan, nan, 0.0006269820732995868, nan, nan, nan, nan, 0.004887143149971962, nan, nan, nan, nan, nan, nan, nan, nan, nan]",
        "reset_counter": "6",
        "estimator_type": "8",
        "quality": "0"
    },
    {
        "mavpackettype": "HIGHRES_IMU",
        "time_usec": "585484078",
        "xacc": "-0.3631696403026581",
        "yacc": "0.1588708758354187",
        "zacc": "-9.79722785949707",
        "xgyro": "0.00016349507495760918",
        "ygyro": "-0.000573786674067378",
        "zgyro": "0.00021988956723362207",
        "xmag": "-0.3799266815185547",
        "ymag": "-0.2913771867752075",
        "zmag": "0.27736812829971313",
        "abs_pressure": "102118.0",
        "diff_pressure": "0.0",
        "pressure_alt": "-65.81489562988281",
        "temperature": "30.03999900817871",
        "fields_updated": "6719",
        "id": "0"
    },
    {
        "mavpackettype": "ATTITUDE_QUATERNION",
        "time_boot_ms": "585489",
        "q1": "0.3192386031150818",
        "q2": "0.01501692645251751",
        "q3": "-0.013315265998244286",
        "q4": "0.9474619030952454",
        "rollspeed": "0.00017666257917881012",
        "pitchspeed": "-0.00020177176338620484",
        "yawspeed": "0.0001929650316014886",
        "repr_offset_q": "[0.0, 0.0, 0.0, 0.0]"
    },
    {
        "mavpackettype": "ATTITUDE",
        "time_boot_ms": "585494",
        "roll": "-0.015652887523174286",
        "pitch": "-0.036966655403375626",
        "yaw": "2.4918999671936035",
        "rollspeed": "-0.00015710934530943632",
        "pitchspeed": "0.0001837492163758725",
        "yawspeed": "0.0003772933268919587"
    },
    {
        "mavpackettype": "ATTITUDE",
        "time_boot_ms": "585538",
        "roll": "-0.01564442180097103",
        "pitch": "-0.03696676343679428",
        "yaw": "2.491959571838379",
        "rollspeed": "-5.8074831031262875e-05",
        "pitchspeed": "0.0005176172126084566",
        "yawspeed": "9.753392077982426e-06"
    },
    {
        "mavpackettype": "HIGHRES_IMU",
        "time_usec": "585583181",
        "xacc": "-0.37214744091033936",
        "yacc": "0.1483995020389557",
        "zacc": "-9.783909797668457",
        "xgyro": "0.0004330715164542198",
        "ygyro": "-0.0005946184974163771",
        "zgyro": "0.0004827096126973629",
        "xmag": "-0.37981826066970825",
        "ymag": "-0.2920108735561371",
        "zmag": "0.27438682317733765",
        "abs_pressure": "102115.0",
        "diff_pressure": "0.0",
        "pressure_alt": "-65.56652069091797",
        "temperature": "30.029998779296875",
        "fields_updated": "7167",
        "id": "0"
    },
    {
        "mavpackettype": "ATTITUDE_QUATERNION",
        "time_boot_ms": "585583",
        "q1": "0.31917819380760193",
        "q2": "0.015021120198071003",
        "q3": "-0.013310623355209827",
        "q4": "0.947482168674469",
        "rollspeed": "0.0011383160017430782",
        "pitchspeed": "-0.0009665477555245161",
        "yawspeed": "0.0001564124831929803",
        "repr_offset_q": "[0.0, 0.0, 0.0, 0.0]"
    },
    {
        "mavpackettype": "ATTITUDE",
        "time_boot_ms": "585593",
